City,Lat,Lng,Max Temp,Humidity,Cloudiness,Wind Speed,Country,Date
adamstown,-25.066,-130.1015,20.71,78,100,9.34,PN,1721128522
tolanaro,-25.0319,46.9987,23.7,64,0,2.52,MG,1721128523
puerto baquerizo moreno,-0.9,-89.6,21.27,84,37,4.93,EC,1721128523
wailua homesteads,22.0669,-159.378,24.24,81,100,7.2,US,1721128523
yellowknife,62.456,-114.3525,18.29,68,75,6.71,CA,1721128523
edinburgh of the seven seas,-37.0676,-12.3116,10.79,63,97,12.5,SH,1721128523
hamilton,39.1834,-84.5333,24.98,73,0,3.6,US,1721128523
tiksi,71.6872,128.8694,6.8,83,89,1.52,RU,1721128524
gueckedou,8.6667,-10.25,22.84,95,100,2.6,GN,1721128524
lappeenranta,61.0587,28.1887,24.19,50,40,4.12,FI,1721128476
talnakh,69.4865,88.3972,17.75,43,24,7.0,RU,1721128308
olonkinbyen,70.9221,-8.7187,5.69,91,0,2.21,SJ,1721128525
waitangi,-43.9535,-176.5597,10.46,85,99,8.36,NZ,1721128525
iskateley,67.6803,53.1512,26.39,47,57,1.01,RU,1721128525
grytviken,-54.2811,-36.5092,2.19,86,96,2.68,GS,1721128525
pahrump,36.2083,-115.9839,29.03,32,12,0.45,US,1721128525
thompson,55.7435,-97.8558,7.09,93,75,2.06,CA,1721128525
madimba,-10.4,40.3333,28.34,51,19,7.05,TZ,1721128525
blackmans bay,-43.0167,147.3167,10.07,96,100,5.79,AU,1721128525
tongliao,43.6125,122.2653,28.23,60,91,7.91,CN,1721128525
mount pearl,47.5166,-52.7813,20.19,91,75,4.63,CA,1721128525
ancud,-41.8697,-73.8203,5.98,93,18,2.36,CL,1721128526
kailua-kona,19.6406,-155.9956,23.98,89,0,4.12,US,1721128526
west island,-12.1568,96.8225,27.99,74,20,7.2,CC,1721128526
avarua,-21.2078,-159.775,18.03,88,75,0.51,CK,1721128526
vuktyl,63.8567,57.3094,28.13,31,9,0.23,RU,1721128261
bethel,41.3712,-73.414,23.39,93,0,0.45,US,1721128526
isafjordur,66.0755,-23.124,15.02,67,0,1.54,IS,1721128526
san luis,-33.295,-66.3356,5.32,54,74,2.68,AR,1721128526
longyearbyen,78.2186,15.6401,7.91,76,20,11.32,SJ,1721128245
surovikino,48.6078,42.8486,36.92,18,0,3.19,RU,1721128526
puerto natales,-51.7236,-72.4875,1.93,93,57,1.68,CL,1721128526
brezina,33.0989,1.2608,41.64,6,12,6.0,DZ,1721128527
pyin oo lwin,22.0333,96.4667,25.57,77,100,1.12,MM,1721128527
kayangel,8.0823,134.7173,26.97,84,97,5.41,PW,1721128527
kodiak,57.79,-152.4072,9.73,93,100,1.54,US,1721128527
morehead city,34.7229,-76.726,29.0,85,20,5.14,US,1721128527
punta arenas,-53.15,-70.9167,5.06,81,20,5.14,CL,1721128527
newman,37.3138,-121.0208,19.13,76,0,0.89,US,1721128527
semiluki,51.6853,39.0279,33.25,40,20,2.0,RU,1721128527
albany,42.6001,-73.9662,22.64,91,74,2.41,US,1721128527
atafu village,-8.5421,-172.5159,28.85,74,37,7.87,TK,1721128527
toppenish,46.3774,-120.3087,22.48,39,78,2.06,US,1721128528
al fulah,11.7329,28.3579,31.95,43,79,4.11,SD,1721128528
quellon,-43.1167,-73.6167,6.03,83,32,0.63,CL,1721128528
invercargill,-46.4,168.35,5.01,95,100,1.3,NZ,1721128528
bakanas,44.8081,76.2772,31.14,30,90,3.5,KZ,1721128528
bamboo flat,11.7,92.7167,25.05,94,100,6.69,IN,1721128528
arraial do cabo,-22.9661,-42.0278,20.92,88,40,5.66,BR,1721128528
margaret river,-33.95,115.0667,14.85,80,56,4.9,AU,1721128528
utrik,11.2278,169.8474,27.8,85,55,9.19,MH,1721128528
homer,59.6425,-151.5483,10.93,88,100,1.54,US,1721128528
okhotsk,59.3833,143.3,12.45,89,19,3.24,RU,1721128528
polyarnyy,69.1989,33.4478,18.04,64,5,2.14,RU,1721128529
udachny,66.4167,112.4,27.69,26,97,2.76,RU,1721128529
port-aux-francais,-49.35,70.2167,2.65,75,85,11.18,TF,1721128529
touros,-5.1989,-35.4608,25.59,69,5,5.97,BR,1721128529
launceston,-41.45,147.1667,11.2,87,100,4.63,AU,1721128529
capao bonito,-24.0058,-48.3494,14.64,94,100,2.74,BR,1721128529
tanaina,61.6269,-149.4281,11.16,82,100,2.06,US,1721128529
ujae,8.9322,165.7642,28.35,83,100,9.05,MH,1721128529
sitka,57.0531,-135.33,11.94,94,100,1.54,US,1721128529
wielun,51.221,18.5696,31.74,46,41,7.05,PL,1721128530
papatowai,-46.5619,169.4708,9.09,97,100,2.5,NZ,1721128530
vila franca do campo,37.7167,-25.4333,23.23,75,29,4.01,PT,1721128530
winona,43.9666,-91.7668,19.89,98,7,2.57,US,1721128530
undurkhaan,47.3194,110.6556,16.23,81,53,2.22,MN,1721128530
bilibino,68.0546,166.4372,11.28,74,92,1.85,RU,1721128530
haiku-pauwela,20.9219,-156.3051,23.47,76,100,6.69,US,1721128530
ushuaia,-54.8,-68.3,3.81,87,20,1.03,AR,1721128530
tshabong,-26.05,22.45,21.43,16,0,2.77,BW,1721128530
port mathurin,-19.6833,63.4167,22.57,65,91,9.83,MU,1721128530
kupang,-10.1667,123.5833,27.32,65,20,4.63,ID,1721128531
corbelia,-24.7989,-53.3067,14.64,98,100,1.91,BR,1721128531
esperanza,19.5847,-70.9849,23.27,97,34,1.98,DO,1721128531
burao,9.5221,45.5336,32.07,34,73,11.43,SO,1721128531
keflavik,64.0049,-22.5624,13.95,87,75,5.66,IS,1721128531
aasiaat,68.7098,-52.8699,3.23,90,100,3.41,GL,1721128531
ilulissat,69.2167,-51.1,8.01,71,20,3.09,GL,1721128531
vilyuysk,63.7553,121.6247,24.96,58,100,1.33,RU,1721128531
mount isa,-20.7333,139.5,13.87,41,0,5.66,AU,1721128531
puerto cabello,10.4731,-68.0125,24.75,76,60,6.51,VE,1721128531
manati,18.4275,-66.4921,27.72,88,52,2.05,PR,1721128532
carnarvon,-24.8667,113.6333,20.65,59,2,3.87,AU,1721128532
port augusta,-32.5,137.7667,9.42,85,34,5.11,AU,1721128532
charters towers,-20.1,146.2667,13.59,38,0,5.35,AU,1721128532
sept-iles,50.2001,-66.3821,16.29,98,100,1.03,CA,1721128339
san patricio,28.017,-97.5169,28.93,88,100,2.31,US,1721128532
nova sintra,14.8667,-24.7167,24.7,85,12,3.07,CV,1721128532
tazacorte,28.629,-17.9293,26.19,77,75,5.66,ES,1721128532
bouarfa,32.53,-1.95,38.69,6,2,8.82,MA,1721128532
okha,53.5739,142.9478,13.76,98,100,3.39,RU,1721128342
puerto ayora,-0.7393,-90.3518,20.86,98,26,3.13,EC,1721128533
nuuk,64.1835,-51.7216,3.34,100,20,1.03,GL,1721128526
isangel,-19.55,169.2667,23.47,81,16,0.38,VU,1721128533
ridgecrest,35.6225,-117.6709,29.45,29,0,5.36,US,1721128533
kirakira,-10.4544,161.9205,26.09,87,98,2.26,SB,1721128533
bredasdorp,-34.5322,20.0403,16.74,59,3,6.29,ZA,1721128533
iqaluit,63.7506,-68.5145,8.85,76,0,2.06,CA,1721128533
sisimiut,66.9395,-53.6735,7.72,71,98,1.37,GL,1721128534
howard springs,-12.497,131.047,21.95,76,35,1.71,AU,1721128534
nar'yan-mar,67.6713,53.087,26.78,44,52,1.58,RU,1721128534
arteche,12.2645,125.4048,25.61,92,100,2.92,PH,1721128534
port lincoln,-34.7333,135.8667,12.21,67,80,7.1,AU,1721128534
port alfred,-33.5906,26.891,20.1,54,22,0.89,ZA,1721128534
chonchi,-42.6128,-73.8092,4.56,96,14,0.19,CL,1721128534
north bend,43.4065,-124.2243,12.18,100,100,1.54,US,1721128534
whitehorse,60.7161,-135.0538,10.43,87,75,5.66,CA,1721128535
petropavlovsk-kamchatsky,53.0452,158.6483,15.33,77,75,3.0,RU,1721128535
nago,26.5881,127.9761,29.52,86,34,3.39,JP,1721128535
stanley,54.868,-1.6985,17.1,82,75,2.06,GB,1721128454
hermanus,-34.4187,19.2345,16.0,68,7,6.59,ZA,1721128535
shenkursk,62.1091,42.896,22.92,69,93,3.31,RU,1721128535
jiangzi,28.95,89.6333,13.89,45,98,3.79,CN,1721128535
nikolayevsk-on-amure,53.1406,140.73,17.32,99,100,1.72,RU,1721128535
wynyard,-41.0,145.7167,11.22,78,64,0.45,AU,1721128535
geraldton,-28.7667,114.6,15.23,72,0,4.12,AU,1721128536
berdigestyakh,62.0989,126.6992,16.95,96,100,1.09,RU,1721128536
kenai,60.5544,-151.2583,10.05,100,100,0.0,US,1721128536
barysh,53.6553,47.1123,28.91,33,17,5.02,RU,1721128537
georgetown,5.4112,100.3354,30.96,74,20,3.6,MY,1721128403
farah,32.5,62.5,40.43,6,0,8.98,AF,1721128315
portland,45.5234,-122.6762,18.15,86,0,1.79,US,1721128332
jamestown,42.097,-79.2353,23.17,98,0,3.6,US,1721128421
pervomayskoye,43.919,46.7102,38.08,17,0,7.43,RU,1721128537
enewetak,11.3474,162.3373,28.82,80,88,9.05,MH,1721128537
anan,33.9167,134.65,24.88,91,92,1.54,JP,1721128537
camana,-16.6228,-72.7111,13.59,87,71,2.99,PE,1721128537
san juan de miraflores,-12.1629,-76.9635,14.93,90,68,2.51,PE,1721128537
vadso,70.0744,29.7487,22.49,82,60,3.09,NO,1721128537
ribeira grande,38.5167,-28.7,24.22,88,75,3.09,PT,1721128537
susuman,62.7833,148.1667,14.6,50,3,2.15,RU,1721128538
saipan,15.1355,145.701,30.39,70,40,7.2,MP,1721128538
callao,-12.0667,-77.15,15.79,82,100,2.57,PE,1721128538
kingston,17.997,-76.7936,27.53,83,20,1.54,JM,1721128499
hithadhoo,-0.6,73.0833,29.03,72,100,2.98,MV,1721128538
mboursou lere,9.7639,14.1539,31.14,55,97,4.44,TD,1721128538
port elizabeth,-33.918,25.5701,21.72,37,0,6.17,ZA,1721128478
lerwick,60.1545,-1.1494,12.0,95,100,5.4,GB,1721128538
kanniyakumari,8.0833,77.5667,29.36,71,100,10.56,IN,1721128538
chambas,22.1928,-78.9136,24.24,97,98,0.96,CU,1721128538
amga,60.8953,131.9608,21.57,69,79,3.38,RU,1721128538
oppdal,62.5943,9.6912,17.74,57,69,4.18,NO,1721128338
sao felix do xingu,-6.6447,-51.995,21.28,51,0,1.49,BR,1721128539
kavaratti,10.5669,72.642,27.22,85,100,8.85,IN,1721128539
ust-nera,64.5667,143.2,20.59,44,2,1.53,RU,1721128539
lorengau,-2.0226,147.2712,27.03,76,100,2.24,PG,1721128539
tazovsky,67.4667,78.7,16.1,56,8,6.01,RU,1721128539
egilsstadir,65.2653,-14.3948,8.95,87,100,3.6,IS,1721128539
fort bragg,35.139,-79.006,25.32,89,75,2.57,US,1721128539
sabha,27.0377,14.4283,40.82,8,0,5.65,LY,1721128539
greymouth,-42.4667,171.2,8.8,94,41,1.97,NZ,1721128539
anadyr,64.75,177.4833,9.28,81,0,5.0,RU,1721128540
bandarbeyla,9.4942,50.8122,33.76,47,64,12.33,SO,1721128540
zhosaly,45.4878,64.0781,32.08,23,12,5.33,KZ,1721128540
ciudad lazaro cardenas,17.9583,-102.2,26.19,89,56,2.23,MX,1721128540
cooma,-36.2333,149.1333,5.46,90,99,4.94,AU,1721128540
sciacca,37.5082,13.0881,37.24,45,0,5.92,IT,1721128540
naze,28.3667,129.4833,28.51,80,9,2.66,JP,1721128540
zhongshu,24.5167,103.7667,22.52,84,100,1.88,CN,1721128540
san miguel,13.4833,-88.1833,22.49,90,5,1.67,SV,1721128540
la passe,45.5549,-0.8967,23.56,69,70,6.87,FR,1721128541
kariong,-33.44,151.3011,11.23,69,54,2.24,AU,1721128541
medicine hat,50.0501,-110.6683,16.55,90,0,2.06,CA,1721128502
hammerfest,70.6634,23.6821,20.25,60,0,3.09,NO,1721128541
grand falls-windsor,48.9332,-55.6649,17.5,95,99,0.45,CA,1721128541
crolles,45.282,5.8782,27.29,60,27,2.66,FR,1721128495
bandundu,-3.3167,17.3667,37.93,21,77,1.4,CD,1721128541
alice springs,-23.7,133.8833,8.75,57,20,3.09,AU,1721128541
lihue,21.9789,-159.3672,24.58,73,100,7.2,US,1721128323
mount gambier,-37.8333,140.7667,10.89,88,100,5.1,AU,1721128541
st. john's,47.5649,-52.7093,20.66,91,75,4.63,CA,1721128541
crane,31.3974,-102.3501,24.96,54,0,6.93,US,1721128542
ta`u,-14.2336,-169.5144,26.75,80,67,7.69,AS,1721128542
rondonopolis,-16.4708,-54.6356,16.58,78,42,0.24,BR,1721128323
faya-largeau,17.9257,19.1043,41.94,27,0,7.2,TD,1721128542
codrington,-38.2667,141.9667,12.39,91,100,7.04,AU,1721128542
massawa,15.6097,39.45,37.73,41,100,4.02,ER,1721128542
gulf shores,30.246,-87.7008,26.67,72,0,0.0,US,1721128542
necochea,-38.5473,-58.7368,6.17,93,50,5.02,AR,1721128542
kyaikkami,16.08,97.5675,25.98,89,100,6.29,MM,1721128542
klyuchi,52.2667,79.1667,19.5,90,100,5.8,RU,1721128542
nemuro,43.3236,145.575,15.56,96,56,5.81,JP,1721128542
maralal,1.0968,36.698,21.68,57,72,2.9,KE,1721128543
afaahiti,-17.75,-149.2833,22.93,84,21,6.6,PF,1721128543
oeiras do para,-2.0031,-49.8544,25.3,69,8,1.37,BR,1721128543
tura,25.5198,90.2201,30.57,77,97,0.84,IN,1721128543
taro,-8.3862,115.28,23.0,91,23,1.32,ID,1721128543
dompu,-8.5356,118.4622,21.59,79,1,1.94,ID,1721128543
tlaltenango de sanchez roman,21.7833,-103.3167,16.83,87,100,1.93,MX,1721128543
lebu,-37.6167,-73.65,10.78,90,91,1.7,CL,1721128543
marang,5.2056,103.2059,29.95,84,90,2.5,MY,1721128543
inarajan village,13.2736,144.7484,27.08,94,99,7.65,GU,1721128544
el granada,37.5027,-122.4694,15.94,86,100,3.09,US,1721128544
qaqortoq,60.7167,-46.0333,6.16,79,6,1.69,GL,1721128443
bernal,-5.45,-80.75,16.24,86,2,4.15,PE,1721128349
kapa'a,22.0752,-159.319,24.99,83,100,7.2,US,1721128544
altamira,-3.2033,-52.2064,23.05,88,0,1.54,BR,1721128544
borodinskiy,53.9986,37.8179,29.03,54,59,2.14,RU,1721128544
ithaca,42.4406,-76.4966,20.66,96,20,2.68,US,1721128544
birao,10.2849,22.7882,33.08,40,97,2.58,CF,1721128544
college,64.8569,-147.8028,10.67,84,75,2.06,US,1721128544
yamada,39.4667,141.95,18.61,95,30,3.04,JP,1721128545
zheleznogorsk-ilimskiy,56.5768,104.1217,21.18,83,57,2.29,RU,1721128301
kingman,35.1894,-114.053,28.48,31,0,6.17,US,1721128545
saint-joseph,-21.3667,55.6167,24.21,71,33,4.62,RE,1721128545
vorgashor,67.5833,63.95,23.16,52,51,3.33,RU,1721128545
al ghayzah,16.2079,52.176,29.53,74,98,5.42,YE,1721128545
wainwright,52.839,-110.8572,12.39,91,3,0.29,CA,1721128545
ambovombe,-25.1667,46.0833,25.15,49,3,1.27,MG,1721128545
jaragua,-15.7569,-49.3344,17.95,55,3,1.31,BR,1721128546
san jose del cabo,23.0589,-109.6977,28.74,55,9,2.09,MX,1721128339
tidjikja,18.5564,-11.4271,31.97,39,52,7.97,MR,1721128546
tilcara,-23.5776,-65.3509,3.56,7,0,7.02,AR,1721128546
colonia,50.9333,6.95,23.86,59,20,7.2,DE,1721128520
thinadhoo,0.5333,72.9333,28.89,73,100,3.06,MV,1721128546
tateyama,34.9833,139.8667,24.5,91,98,2.67,JP,1721128546
nyagan,62.1406,65.3936,24.22,47,87,3.19,RU,1721128546
paramonga,-10.6667,-77.8333,15.92,83,78,3.15,PE,1721128546
berezovo,63.9381,65.0419,25.49,45,100,1.69,RU,1721128547
hamada,34.8833,132.0833,24.42,95,100,3.91,JP,1721128547
vila velha,-20.3297,-40.2925,20.97,92,40,0.51,BR,1721128547
kati,12.7441,-8.0726,27.67,74,94,3.04,ML,1721128547
dunedin,-45.8742,170.5036,8.22,99,100,0.45,NZ,1721128547
kolosovka,56.4678,73.611,24.59,74,90,3.21,RU,1721128547
badger,64.8,-147.5333,10.63,88,75,2.06,US,1721128547
happy valley-goose bay,53.3168,-60.3315,15.17,94,100,4.12,CA,1721128547
monticello,45.3055,-93.7941,17.07,94,0,2.06,US,1721128547
westport,41.1415,-73.3579,25.44,83,0,2.06,US,1721128548
madaripur,23.1753,90.2072,31.21,76,100,5.18,BD,1721128548
vilyuchinsk,52.9306,158.4028,16.15,86,100,0.7,RU,1721128548
voi,-3.3945,38.563,27.21,47,93,5.31,KE,1721128548
singkawang,0.9,109.0,27.72,82,95,3.95,ID,1721128548
villa dolores,-31.9459,-65.1896,4.73,77,43,0.39,AR,1721128548
perry,37.2506,-83.1999,24.4,92,0,2.13,US,1721128548
cipo,-11.0997,-38.5136,22.26,82,65,2.5,BR,1721128548
luanda,-8.8368,13.2343,22.14,76,100,2.56,AO,1721128548
sarykemer,43.0,71.5,24.71,20,100,2.55,KZ,1721128385
gao,16.6362,1.637,35.22,37,31,2.27,ML,1721128549
rikaze,29.25,88.8833,22.84,32,95,5.04,CN,1721128549
den burg,53.0542,4.7972,18.99,82,75,8.75,NL,1721128549
bamyan,34.75,67.25,24.82,11,1,6.81,AF,1721128549
hadibu,12.65,54.0333,28.34,69,87,11.02,YE,1721128549
howrah,22.5892,88.3103,32.0,79,75,3.6,IN,1721128314
hawaiian paradise park,19.5933,-154.9731,23.74,78,100,3.09,US,1721128549
timmins,48.4669,-81.3331,16.9,100,100,2.57,CA,1721128549
chegdomyn,51.1167,133.0167,25.03,65,36,2.59,RU,1721128332
sao joao da barra,-21.6403,-41.0511,21.05,77,59,1.87,BR,1721128549
bantogon,6.5333,124.0333,26.26,85,100,1.23,PH,1721128550
kadinhani,38.2397,32.2114,30.35,24,1,3.36,TR,1721128550
oxapampa,-10.5775,-75.4017,12.07,99,84,0.55,PE,1721128550
santa cruz del sur,20.7147,-77.9956,25.19,92,58,5.89,CU,1721128550
takoradi,4.8845,-1.7554,26.22,76,100,4.88,GH,1721128550
birobidzhan,48.8,132.95,24.61,90,28,2.46,RU,1721128550
gurupi,-11.7292,-49.0686,21.49,39,0,3.52,BR,1721128550
ingeniero guillermo n. juarez,-23.9,-61.85,7.06,90,0,2.78,AR,1721128550
sundumbili,-29.1337,31.3975,23.51,39,3,2.16,ZA,1721128550
izucar de matamoros,18.6,-98.4667,17.05,84,14,1.27,MX,1721128551
boca chica,18.4537,-69.6111,24.06,100,75,1.54,DO,1721128551
ebon,4.582,168.6964,28.36,82,100,7.85,MH,1721128551
pathankot,32.2833,75.65,40.83,29,0,0.54,IN,1721128551
lompoc,34.6391,-120.4579,13.29,88,100,4.92,US,1721128551
mahibadhoo,3.7833,72.9667,28.83,79,100,5.79,MV,1721128551
talara,-4.5772,-81.2719,17.31,81,9,6.02,PE,1721128551
acarau,-2.8856,-40.12,25.07,67,0,4.36,BR,1721128551
kyabe,9.4515,18.9449,31.34,56,99,2.31,TD,1721128552
prince albert,53.2001,-105.7677,9.97,100,20,1.54,CA,1721128552
sungailiat,-1.85,106.1333,28.11,75,80,5.0,ID,1721128552
conception bay south,47.4999,-52.9981,20.53,94,75,2.79,CA,1721128552
constantia,44.1833,28.65,38.38,45,69,3.16,RO,1721128369
ventspils,57.3894,21.5606,27.96,57,0,3.6,LV,1721128372
tual,-5.6667,132.75,25.63,73,56,8.73,ID,1721128552
atar,20.5169,-13.0499,31.38,33,35,4.23,MR,1721128552
port blair,11.6667,92.75,25.02,94,100,6.69,IN,1721128552
goroka,-6.0834,145.3873,16.3,97,95,0.53,PG,1721128553
sao vicente,-23.9631,-46.3919,19.59,59,100,1.03,BR,1721128553
palmer,42.1584,-72.3287,23.52,81,40,0.0,US,1721128553
mossel bay,-34.1831,22.146,16.96,53,32,3.35,ZA,1721128387
kiruna,67.8557,20.2251,16.51,77,75,1.54,SE,1721128553
hafar al-batin,28.4328,45.9708,43.32,9,0,6.17,SA,1721128553
masterton,-40.9597,175.6575,9.38,96,0,1.24,NZ,1721128553
tadine,-21.55,167.8833,20.75,80,85,2.23,NC,1721128553
zheshart,62.0731,49.5733,27.38,33,60,2.72,RU,1721128553
luderitz,-26.6481,15.1594,20.39,39,0,6.67,NA,1721128553
tambopata,-12.7333,-69.1833,13.94,94,75,0.0,PE,1721128554
daru,-9.0763,143.2092,23.66,82,90,2.6,PG,1721128554
cidade velha,14.9167,-23.6167,29.26,65,20,3.6,CV,1721128554
amalapuram,16.5833,82.0167,31.83,64,88,3.14,IN,1721128554
bubaque,11.2833,-15.8333,26.72,83,100,6.63,GW,1721128554
palikir - national government center,6.9248,158.1611,26.41,83,100,2.57,FM,1721128554
nagato,34.3833,131.2,24.55,93,98,2.05,JP,1721128554
quelimane,-17.8786,36.8883,27.97,57,75,3.09,MZ,1721128555
miles city,46.4083,-105.8406,19.54,68,75,5.66,US,1721128555
laguna,38.421,-121.4238,19.24,69,0,3.6,US,1721128555
staraya russa,57.9944,31.3608,26.61,45,62,0.8,RU,1721128555
sinabang,2.4803,96.3801,28.49,75,67,2.05,ID,1721128555
remire-montjoly,4.9167,-52.2667,26.02,100,100,1.03,GF,1721128463
awjilah,29.1081,21.2869,37.96,16,0,1.82,LY,1721128555
samdrup jongkhar,26.9167,91.6167,22.17,95,100,0.35,BT,1721128555
asaita,11.5636,41.4394,37.97,28,45,2.63,ET,1721128556
east london,-33.0153,27.9116,20.52,37,0,2.06,ZA,1721128556
karagandy,49.8019,73.1021,24.97,47,85,3.07,KZ,1721128556
tindouf,27.6711,-8.1474,44.25,5,0,3.09,DZ,1721128556
kasaoka,34.5,133.5,27.23,98,95,2.24,JP,1721128556
sola,-13.8833,167.55,26.96,79,36,1.55,VU,1721128556
tsiombe,-25.3,45.4833,27.12,29,0,2.3,MG,1721128557
saldanha,-33.0117,17.9442,14.68,79,35,5.4,ZA,1721128557
ketchikan,55.3422,-131.6461,14.26,100,100,4.12,US,1721128557
new norfolk,-42.7826,147.0587,10.72,99,100,0.65,AU,1721128557
kargasok,59.0556,80.8572,23.32,70,99,3.8,RU,1721128557
puerto real,36.5282,-6.1901,32.07,36,0,5.41,ES,1721128517
san antonio de pale,-1.4014,5.6325,22.41,89,99,5.31,GQ,1721128557
labrador city,52.9463,-66.9114,16.95,72,75,2.06,CA,1721128557
kalmunai,7.4167,81.8167,34.08,45,100,8.28,LK,1721128557
umbraresti,45.7167,27.4667,41.46,14,16,4.01,RO,1721128557
cill airne,52.05,-9.5167,17.03,67,75,2.57,IE,1721128558
chibougamau,49.9168,-74.3659,14.79,94,100,2.57,CA,1721128558
flying fish cove,-10.4217,105.6791,25.82,78,75,5.66,CX,1721128558
itapeva,-23.9822,-48.8756,15.01,85,100,3.92,BR,1721128558
kristiansund,63.1115,7.732,20.03,87,40,4.12,NO,1721128558
mili,6.0815,171.735,28.38,82,100,9.4,MH,1721128558
bairnsdale,-37.8333,147.6167,10.03,95,81,0.45,AU,1721128558
ridder,50.355,83.5133,22.15,87,49,1.69,KZ,1721128558
bonnyville,54.2668,-110.735,11.89,91,3,0.9,CA,1721128558
nagqu,31.5,92.0,15.97,57,99,4.77,CN,1721128559
archangelos,36.2149,28.1149,29.99,37,0,1.59,GR,1721128559
athens,37.9795,23.7162,36.88,23,0,8.23,GR,1721128303
saint-philippe,-21.3585,55.7679,24.77,72,55,6.59,RE,1721128559
borogontsy,62.6683,131.1683,22.71,66,43,2.15,RU,1721128559
lata,40.1629,-8.3327,22.82,40,31,2.62,PT,1721128559
rustam,27.969,68.8048,41.97,13,8,4.43,PK,1721128559
anchorage,61.2181,-149.9003,11.96,86,100,5.14,US,1721128337
itoman,26.1247,127.6694,30.01,82,20,3.6,JP,1721128559
goure,13.9835,10.2704,33.75,40,83,2.34,NE,1721128559
maxixe,-23.8597,35.3472,25.9,69,75,2.06,MZ,1721128559
tutoia,-2.7619,-42.2744,24.28,74,26,2.94,BR,1721128560
ullal,12.8,74.85,26.53,94,100,7.2,IN,1721128560
chopinzinho,-25.8558,-52.5233,13.07,93,73,3.07,BR,1721128560
evanston,42.0411,-87.6901,21.1,95,40,3.13,US,1721128560
holualoa,19.6228,-155.9522,21.91,89,0,4.12,US,1721128560
hilo,19.7297,-155.09,23.86,82,100,3.09,US,1721128560
marsh harbour,26.5412,-77.0636,27.1,75,4,2.54,BS,1721128560
suomussalmi,64.8869,28.9078,18.8,80,100,2.0,FI,1721128560
rio verde de mato grosso,-18.9181,-54.8442,17.27,68,3,2.19,BR,1721128561
sovetskaya gavan',48.9723,140.2878,20.03,79,98,1.91,RU,1721128561
peto,20.1333,-88.9167,23.48,100,76,0.92,MX,1721128561
cidreira,-30.1811,-50.2056,15.43,87,71,5.23,BR,1721128561
kerikeri,-35.2268,173.9474,10.51,93,92,0.33,NZ,1721128561
minas de marcona,-15.2119,-75.1103,8.99,88,73,4.82,PE,1721128561
arraias,-12.9288,-46.9437,18.66,46,0,2.97,BR,1721128562
revda,56.801,59.9303,23.58,43,81,4.15,RU,1721128562
port hedland,-20.3167,118.5667,22.03,35,1,0.51,AU,1721128562
midvagur,62.0511,-7.1939,10.46,100,100,3.6,FO,1721128562
kabinda,-6.1333,24.4833,35.46,13,13,1.39,CD,1721128562
paracuru,-3.41,-39.0306,26.17,64,22,6.3,BR,1721128562
broome,42.2506,-75.833,19.82,86,23,1.34,US,1721128562
puerto san jose,13.9256,-90.8244,25.39,84,14,2.48,GT,1721128563
todos santos,23.45,-110.2167,22.47,88,26,2.71,MX,1721128563
motilla del palancar,39.5709,-1.9068,29.12,41,0,2.68,ES,1721128563
barcelos,41.5388,-8.6151,22.18,57,16,2.54,PT,1721128548
uyskoye,54.3775,60.0047,19.88,70,92,7.41,RU,1721128563
sur,22.5667,59.5289,29.71,73,87,3.29,OM,1721128563
san luis de la loma,17.2706,-100.8939,25.62,79,26,1.71,MX,1721128563
nema,57.5067,50.5011,25.88,39,13,3.52,RU,1721128563
haizhou,34.5817,119.1289,25.84,90,100,1.74,CN,1721128563
chernyshevskiy,63.0128,112.4714,23.02,62,100,1.92,RU,1721128564
nizhneudinsk,54.9076,99.0276,25.42,48,66,1.72,RU,1721128564
churapcha,62.0025,132.4325,22.29,63,46,3.88,RU,1721128530
hastings,50.8552,0.5729,18.83,85,88,8.68,GB,1721128501
grevenbroich,51.091,6.5827,23.82,69,0,3.6,DE,1721128564
conduaga,8.862,117.4893,26.93,80,100,1.76,PH,1721128565
niort,46.3333,-0.3333,21.76,65,73,6.66,FR,1721128123
sedhiou,12.7081,-15.5569,28.6,77,100,2.34,SN,1721128565
fier,40.7239,19.5561,35.04,40,0,6.04,AL,1721128565
bedesa,8.9,40.7833,25.04,55,100,2.06,ET,1721128565
tegueste,28.5167,-16.3167,24.18,94,100,9.77,ES,1721128565
jiazi,22.8779,116.067,27.99,86,78,5.34,CN,1721128565
bandon,51.7469,-8.7425,16.77,64,58,4.02,IE,1721128488
nadym,65.5333,72.5167,23.92,37,2,5.55,RU,1721128565
sault ste. marie,46.5168,-84.3333,19.16,94,100,3.6,CA,1721128565
santa quiteria do maranhao,-3.5156,-42.5467,25.12,57,6,2.42,BR,1721128566
altai,46.3722,96.2583,25.54,20,41,2.3,MN,1721128566
kone,-21.0595,164.8658,18.46,80,13,0.65,NC,1721128566
alta,69.9689,23.2717,26.59,34,0,3.09,NO,1721128566
qarauyl,48.9451,79.255,29.58,31,55,4.96,KZ,1721128566
'ain el melh,34.8415,4.1638,38.91,11,35,4.16,DZ,1721128566
west bay,19.3667,-81.4167,29.04,84,20,3.6,KY,1721128566
murghob,38.1702,73.9667,17.27,14,0,11.86,TJ,1721128566
ulladulla,-35.35,150.4667,10.79,88,98,4.6,AU,1721128566
krasnogorskoye,52.2953,86.1979,22.15,91,100,2.79,RU,1721128566
le port,-20.9373,55.2919,25.98,65,29,3.53,RE,1721128567
dudinka,69.4058,86.1778,17.13,43,15,6.61,RU,1721128567
cabo san lucas,22.8909,-109.9124,28.75,59,20,0.45,MX,1721128567
lakatoro,-16.0999,167.4164,25.58,89,50,2.37,VU,1721128567
terbanggi besar,-4.8667,105.2333,26.54,73,39,4.78,ID,1721128567
walvis bay,-22.9575,14.5053,21.53,30,0,3.09,NA,1721128567
harper,4.375,-7.7169,25.3,73,99,4.23,LR,1721128567
broken hill,-31.95,141.4333,8.6,63,92,9.39,AU,1721128567
causeni,46.6442,29.4139,38.57,13,27,4.7,MD,1721128567
port douglas,-16.4833,145.4667,20.25,74,19,1.74,AU,1721128567
al muwayh,22.4333,41.7583,40.41,8,69,5.1,SA,1721128568
riachao das neves,-11.7461,-44.91,20.18,43,0,1.79,BR,1721128568
north shore,-36.8,174.75,11.37,92,100,0.66,NZ,1721128568
achacachi,-16.05,-68.6833,3.66,32,74,0.77,BO,1721128568
san fernando,15.0286,120.6898,29.85,82,100,2.44,PH,1721128292
sungai raya,0.7,108.9,27.64,82,92,4.06,ID,1721128568
gaiman,-43.2897,-65.4929,8.01,82,99,5.11,AR,1721128568
hotan,37.0997,79.9269,33.35,21,0,3.14,CN,1721128568
balaklava,44.5,33.6,31.77,47,97,2.53,UA,1721128568
waddan,29.1614,16.139,37.4,12,0,2.88,LY,1721128568
regina,50.4501,-104.6178,13.99,92,75,2.06,CA,1721128568
yuzhno-kurilsk,44.0306,145.8556,16.48,93,89,4.85,RU,1721128569
swakopmund,-22.6833,14.5333,21.47,63,0,4.32,NA,1721128569
cabedelo,-6.9811,-34.8339,25.37,70,20,6.79,BR,1721128569
iisalmi,63.5592,27.1907,19.32,77,100,2.99,FI,1721128502
acapulco de juarez,16.8634,-99.8901,26.9,69,40,3.09,MX,1721128569
hazorasp,41.3194,61.0742,33.91,18,2,7.53,UZ,1721128523
pontianak,-0.0333,109.3333,30.99,70,20,1.03,ID,1721128569
island harbour,50.724,-1.2758,17.9,87,75,2.24,GB,1721128569
berezovyy,51.6667,135.7,23.26,89,67,1.63,RU,1721128569
jurm,36.8648,70.8342,26.64,31,27,4.47,AF,1721128569
mujiayingzi,42.1167,118.7833,22.45,73,22,4.66,CN,1721128569
guerrero negro,27.9769,-114.0611,18.24,92,3,4.27,MX,1721128569
mana,5.6592,-53.7767,24.86,92,69,2.78,GF,1721128570
uturoa,-16.7333,-151.4333,25.1,86,35,5.12,PF,1721128570
fortuna,40.5982,-124.1573,12.74,92,8,0.47,US,1721128570
weno,7.4515,151.8468,26.97,89,100,1.54,FM,1721128570
smithers,54.7804,-127.1743,14.18,88,20,0.0,CA,1721128570
boke,10.9409,-14.2967,27.02,84,97,1.62,GN,1721128570
praya,14.9215,-23.5087,29.3,65,20,3.6,CV,1721128299
goz beida,13.95,20.55,33.2,37,92,3.86,TD,1721128570
pemba,-12.974,40.5178,27.39,65,40,6.69,MZ,1721128570
baybay,10.6833,124.8333,24.73,91,100,1.12,PH,1721128571
coahuayana de hidalgo,18.7,-103.6583,25.26,88,100,1.4,MX,1721128571
katsuura,35.1333,140.3,24.26,94,99,1.06,JP,1721128571
labytnangi,66.6572,66.4183,24.78,49,85,0.97,RU,1721128571
mourenx,43.3833,-0.6,23.97,60,75,1.54,FR,1721128571
skeldon,5.8833,-57.1333,23.59,97,100,2.33,GY,1721128571
peranampattu,12.9333,78.7167,27.45,66,100,8.53,IN,1721128571
maceio,-9.6658,-35.7353,22.69,94,75,3.09,BR,1721128566
guarapari,-20.6667,-40.4975,20.5,80,51,2.93,BR,1721128571
kidal,18.4411,1.4078,36.84,31,32,4.23,ML,1721128571
port-vila,-17.7338,168.3219,22.78,100,100,1.03,VU,1721128571
nuevitas,21.5453,-77.2644,26.16,85,100,3.3,CU,1721128571
al jawf,29.5,38.75,37.14,16,0,1.02,SA,1721128572
boguchany,58.3814,97.4531,23.54,66,94,1.09,RU,1721128572
aykhal,66.0,111.5,26.17,28,100,3.27,RU,1721128572
zalari,53.5584,102.5065,23.3,58,84,2.39,RU,1721128572
karkala,13.2,74.9833,25.9,85,100,5.27,IN,1721128572
dolores,-36.3132,-57.6792,3.64,91,2,3.42,AR,1721128573
kariba,-16.5167,28.8,27.24,27,0,1.54,ZW,1721128573
tara,56.8944,74.371,25.18,73,65,3.77,RU,1721128573
mangalia,43.8,28.5833,32.18,44,89,5.12,RO,1721128573
fale old settlement,-9.3852,-171.2468,28.72,71,15,8.78,TK,1721128573
klaksvik,62.2266,-6.589,10.51,98,100,3.82,FO,1721128369
lazaro cardenas,17.9583,-102.2,26.19,89,56,2.23,MX,1721128573
greenville,35.6127,-77.3663,26.01,95,0,3.6,US,1721128573
madinat ash shamal,26.1293,51.2009,35.9,54,4,5.26,QA,1721128502
presidente medici,-11.1753,-61.9014,16.58,72,2,1.79,BR,1721128573
ambodifotatra,-16.9833,49.85,23.6,68,74,2.82,MG,1721128573
genhe,50.7833,121.5167,15.78,99,100,1.65,CN,1721128432
manhattan,40.7834,-73.9662,27.03,75,0,1.54,US,1721128574
usinsk,65.9939,57.5281,26.71,36,21,0.62,RU,1721128349
betio village,1.358,172.9211,28.02,81,91,8.26,KI,1721128574
usogorsk,63.4106,48.6872,27.6,32,54,2.39,RU,1721128574
basco,20.4487,121.9702,29.97,80,26,6.45,PH,1721128574
papao,-17.75,-149.55,23.82,90,44,5.69,PF,1721128574
bereznik,62.8551,42.7072,23.91,59,95,2.88,RU,1721128574
san rafael,-34.6177,-68.3301,5.15,45,85,2.86,AR,1721128574
ulsteinvik,62.3432,5.8487,16.66,93,88,0.89,NO,1721128574
tuni,17.35,82.55,31.13,70,74,7.73,IN,1721128575
wellington,-41.2866,174.7756,11.81,93,100,5.66,NZ,1721128575
orito,0.6766,-76.8771,19.7,99,99,1.01,CO,1721128575
buka,40.8108,69.1986,35.24,18,76,4.84,UZ,1721128575
guixi,28.2886,117.2133,28.43,77,93,2.85,CN,1721128575
clinton,42.587,-82.9199,22.18,86,100,7.72,US,1721128540
queenstown,-31.8976,26.8753,16.08,28,56,9.6,ZA,1721128575
broussard,30.1472,-91.9612,26.01,94,75,0.0,US,1721128575
tlahualilo de zaragoza,26.1167,-103.45,22.26,68,100,2.58,MX,1721128575
hasaki,35.7333,140.8333,23.22,89,91,2.03,JP,1721128575
fiambala,-27.6871,-67.6149,8.46,25,20,1.49,AR,1721128575
richards bay,-28.783,32.0377,24.38,40,23,2.95,ZA,1721128416
cadale,2.7603,46.3222,26.34,77,49,9.73,SO,1721128576
leskovac,42.9981,21.9461,37.77,16,5,5.36,RS,1721128572
port saint john's,-31.6229,29.5448,21.71,24,4,2.32,ZA,1721128576
gadzhiyevo,69.2551,33.3362,18.99,62,6,2.73,RU,1721128400
doctor juan leon mallorquin,-25.4,-55.2667,7.85,95,6,0.53,PY,1721128576
mendi,-6.1761,143.6513,13.66,100,100,0.63,PG,1721128576
i-n-salah,27.1935,2.4607,43.68,12,1,3.95,DZ,1721128576
ghat,24.9647,10.1728,42.46,7,11,5.65,LY,1721128576
mil'kovo,55.6078,37.7956,31.46,54,9,1.38,RU,1721128576
musoma,-1.5,33.8,25.75,46,71,5.07,TZ,1721128577
wenling,28.3669,121.36,27.1,92,92,3.92,CN,1721128533
idil,37.3411,41.8895,38.96,15,0,3.09,TR,1721128577
yangambi,0.8102,24.4336,34.86,33,57,1.8,CD,1721128577
jinghong,21.991,100.7341,29.08,76,86,1.09,CN,1721128547
urangan,-25.3,152.9,15.66,50,2,5.87,AU,1721128577
novodvinsk,64.4165,40.8122,23.86,70,90,0.84,RU,1721128577
kenema,7.8767,-11.1875,23.65,95,100,1.46,SL,1721128353
revelstoke,50.9832,-118.2023,17.59,71,4,0.48,CA,1721128300
east ballina,-28.8667,153.5833,11.7,61,1,6.06,AU,1721128577
wewak,-3.5534,143.6268,24.73,89,100,1.99,PG,1721128577
namtsy,62.7161,129.6658,24.68,53,56,2.89,RU,1721128538
brady,31.1352,-99.3351,24.25,69,40,5.14,US,1721128578
mar del plata,-38.0023,-57.5575,4.93,91,6,2.24,AR,1721128047
touba,8.2833,-7.6833,25.69,75,100,4.22,CI,1721128578
taoyuan city,24.9937,121.297,31.66,81,75,3.09,TW,1721128474
carloforte,39.145,8.3058,24.92,75,0,6.15,IT,1721128578
reguiba,33.5639,6.7033,39.03,16,0,3.6,DZ,1721128578
balabac,7.9868,117.0645,27.3,77,95,1.46,PH,1721128578
kruisfontein,-34.0033,24.7314,20.49,28,25,3.01,ZA,1721128578
khovd,48.0056,91.6419,31.7,20,24,3.36,MN,1721128578
villa yapacani,-17.4,-63.8333,10.62,67,10,1.08,BO,1721128579
abay,49.6311,72.8539,26.21,31,80,2.45,KZ,1721128474
felege neway,6.3,36.8833,23.25,76,96,0.7,ET,1721128579
svetlyy,54.675,20.1347,31.03,53,20,4.48,RU,1721128579
mazamari,-11.3258,-74.5308,18.67,94,100,0.4,PE,1721128579
haliyal,15.3333,74.7667,24.93,94,100,6.71,IN,1721128579
zaltan,32.947,11.8665,32.62,38,1,5.17,LY,1721128579
mollendo,-17.0231,-72.0147,13.14,85,100,3.08,PE,1721128579
la ronge,55.1001,-105.2842,8.14,93,0,0.0,CA,1721128579
copiapo,-27.3667,-70.3333,5.83,38,59,0.36,CL,1721128579
maitum,6.0392,124.4986,26.11,84,98,1.06,PH,1721128580
laojunmiao,39.8333,97.7333,27.04,34,2,7.53,CN,1721128580
sosnogorsk,63.6023,53.8817,28.27,32,39,1.78,RU,1721128580
ternate,0.8,127.4,26.83,80,93,3.59,ID,1721128580
bardai,11.65,7.2333,29.12,55,99,2.93,NG,1721128580
jiuquan,39.7432,98.5174,32.31,26,8,7.31,CN,1721128580
mejit,10.2753,170.8646,27.84,83,63,9.79,MH,1721128580
ardestan,33.3761,52.3694,37.4,12,0,5.32,IR,1721128580
meadow lakes,61.6247,-149.6011,11.4,85,100,0.0,US,1721128580
mont-dore,-22.2833,166.5833,18.99,84,2,3.21,NC,1721128581
rongelap,11.1635,166.8941,27.96,84,79,9.49,MH,1721128581
vernon,50.2581,-119.2691,20.52,48,0,2.57,CA,1721128343
al 'aziziyah,32.9058,45.0616,45.16,11,0,6.78,IQ,1721128581
pandan,14.0453,124.1694,26.38,87,100,4.29,PH,1721128581
tenenkou,14.4572,-4.9169,30.54,52,100,2.09,ML,1721128581
wanning,18.8003,110.3967,27.27,90,100,2.82,CN,1721128581
cururupu,-1.8283,-44.8683,25.45,82,6,0.92,BR,1721128581
choyr,46.3611,108.3611,26.93,32,21,4.92,MN,1721128581
koch bihar,26.3167,89.4333,30.85,75,99,2.32,IN,1721128581
kalifornsky,60.4183,-151.29,10.19,99,0,0.0,US,1721128582
glace bay,46.1969,-59.957,20.71,93,75,5.14,CA,1721128582
saint david's,12.0333,-61.6667,26.75,84,93,4.14,GD,1721128582
mani,4.8172,-72.2886,21.14,97,94,2.97,CO,1721128582
benjamin constant,-4.3831,-70.0311,21.07,83,0,2.57,BR,1721128582
prado,-17.3411,-39.2208,22.56,80,14,1.35,BR,1721128582
kalabo,-14.97,22.6814,31.09,13,6,2.61,ZM,1721128582
cannonvale,-20.2833,148.7,17.66,53,0,1.54,AU,1721128582
gillette,44.2911,-105.5022,17.75,59,0,0.89,US,1721128582
pipar,26.3856,73.5378,39.75,35,73,3.5,IN,1721128583
maunabo,18.0072,-65.8993,28.91,90,39,3.64,PR,1721128583
selfoss,63.9331,-20.9971,13.36,84,100,3.07,IS,1721128584
coquimbo,-29.9533,-71.3436,6.85,100,100,3.09,CL,1721128584
corinto,37.9407,22.9573,34.94,22,0,6.42,GR,1721128584
ca mau,9.1769,105.15,26.28,84,100,3.75,VN,1721128585
gazli,40.1333,63.45,37.0,16,23,8.0,UZ,1721128585
idanre,7.1127,5.1159,25.13,82,100,2.23,NG,1721128585
